{
  "country": "Austria",
  "country_code": "AT",
  "region": "Europa Occidental",
  "states": [
    {
      "name": "Viena",
      "cities": [
        {"name": "Viena", "latitude": 48.2082, "longitude": 16.3738}
      ]
    },
    {
      "name": "Salzburgo",
      "cities": [
        {"name": "Salzburgo", "latitude": 47.8095, "longitude": 13.0550}
      ]
    },
    {
      "name": "Tirol",
      "cities": [
        {"name": "Innsbruck", "latitude": 47.2692, "longitude": 11.4041}
      ]
    },
    {
      "name": "Alta Austria",
      "cities": [
        {"name": "Linz", "latitude": 48.3069, "longitude": 14.2858}
      ]
    },
    {
      "name": "Estiria",
      "cities": [
        {"name": "Graz", "latitude": 47.0707, "longitude": 15.4395}
      ]
    }
  ]
}
